City_ID,City,Country,Lat,Lng,Max Temp,Humidity,Cloudiness,Wind Speed,Current Description
0,Ushuaia,AR,-54.8,-68.3,35.26,69,0,5.75,clear sky
1,Asau,RO,46.4333,26.4,64.4,89,76,5.64,broken clouds
2,Rikitea,PF,-23.1203,-134.9692,74.79,77,79,23.33,broken clouds
3,Fortuna,US,40.5982,-124.1573,59.41,71,90,1.99,overcast clouds
4,Antsohihy,MG,-14.8796,47.9875,78.21,50,40,11.41,scattered clouds
5,Vaini,TO,-21.2,-175.2,75.36,88,75,6.91,light rain
6,Praia Da Vitoria,PT,38.7333,-27.0667,62.76,100,75,16.6,broken clouds
7,Punta Arenas,CL,-53.15,-70.9167,32.11,100,0,11.5,clear sky
8,Tuktoyaktuk,CA,69.4541,-133.0374,39.2,100,75,10.36,broken clouds
9,Chuy,UY,-33.6971,-53.4616,51.46,78,100,10.74,overcast clouds
10,Sonoita,MX,31.85,-112.8333,90.07,26,48,1.97,scattered clouds
11,Chapleau,CA,47.8405,-83.4034,46.38,61,31,5.5,scattered clouds
12,Bengkulu,ID,-3.8004,102.2655,84.0,69,45,7.78,scattered clouds
13,Victoria,HK,22.2855,114.1577,91.45,74,87,11.01,overcast clouds
14,Busselton,AU,-33.65,115.3333,60.08,57,0,3.27,clear sky
15,Torbay,CA,47.6666,-52.7314,59.88,96,90,18.41,mist
16,Barrow,US,71.2906,-156.7887,50.02,71,1,13.8,clear sky
17,Jalu,LY,29.0331,21.5482,80.8,31,0,11.27,clear sky
18,Albany,US,42.6001,-73.9662,51.82,82,10,4.74,clear sky
19,Khani,GE,41.9563,42.9566,62.17,96,99,2.26,overcast clouds
20,Dikson,RU,73.5069,80.5464,41.95,66,91,19.98,overcast clouds
21,Castro,BR,-24.7911,-50.0119,50.41,95,92,6.62,overcast clouds
22,Cidreira,BR,-30.1811,-50.2056,51.67,82,99,7.72,overcast clouds
23,Manicore,BR,-5.8092,-61.3003,75.15,100,0,0.0,clear sky
24,Hobart,AU,-42.8794,147.3294,52.92,96,90,1.99,light intensity drizzle
25,Isla Mujeres,MX,21.2311,-86.731,77.16,88,100,15.75,overcast clouds
26,Bluff,NZ,-46.6,168.3333,43.81,74,81,11.01,broken clouds
27,Tilichiki,RU,60.4667,166.1,53.58,65,91,8.01,overcast clouds
28,Airai,TL,-8.9266,125.4092,72.88,53,63,3.65,broken clouds
29,Hurricane,US,37.1753,-113.2899,97.27,17,77,8.55,broken clouds
30,Port Hardy,CA,50.6996,-127.4199,53.78,87,75,4.61,broken clouds
31,Manggar,ID,-2.8833,108.2667,86.22,60,91,8.08,overcast clouds
32,Linxia,CN,35.6003,103.2064,53.69,70,100,1.36,overcast clouds
33,Arraial Do Cabo,BR,-22.9661,-42.0278,68.99,79,48,15.9,scattered clouds
34,Lebu,CL,-37.6167,-73.65,50.94,85,69,4.65,broken clouds
35,Hilo,US,19.7297,-155.09,74.8,90,90,5.75,moderate rain
36,Qaanaaq,GL,77.484,-69.3632,28.96,77,75,5.5,broken clouds
37,Bambous Virieux,MU,-20.3428,57.7575,73.22,83,75,11.5,broken clouds
38,Kapaa,US,22.0752,-159.319,79.12,79,40,3.0,light rain
39,Saint-Philippe,RE,-21.3585,55.7679,75.47,82,58,12.77,light rain
40,Vanavara,RU,60.34,102.2797,77.58,28,15,2.64,few clouds
41,Salym,RU,60.0625,71.4789,78.89,44,34,9.57,scattered clouds
42,Mogadishu,SO,2.0371,45.3438,80.47,65,40,14.97,scattered clouds
43,Vila Velha,BR,-20.3297,-40.2925,65.95,94,75,2.3,broken clouds
44,Manaia,NZ,-39.55,174.1333,51.8,89,15,6.44,few clouds
45,Cape Town,ZA,-33.9258,18.4232,58.12,93,75,8.05,broken clouds
46,Kununurra,AU,-15.7667,128.7333,89.58,18,52,8.05,broken clouds
47,Mataura,NZ,-46.1927,168.8643,43.48,97,60,2.57,broken clouds
48,Port Alfred,ZA,-33.5906,26.891,59.47,76,3,7.96,clear sky
49,Khatanga,RU,71.9667,102.5,66.51,53,82,9.26,broken clouds
50,Katsuura,JP,35.1333,140.3,80.24,68,59,15.08,broken clouds
51,Lagoa,PT,39.05,-27.9833,63.73,79,100,20.83,overcast clouds
52,Haines Junction,CA,60.7522,-137.5108,55.35,44,75,9.22,broken clouds
53,Verkhnyaya Toyma,RU,62.2349,44.9985,58.26,51,75,13.6,broken clouds
54,Butaritari,KI,3.0707,172.7902,84.02,68,35,11.68,scattered clouds
55,Ilulissat,GL,69.2167,-51.1,33.46,98,98,0.85,overcast clouds
56,Kamaishi,JP,39.2667,141.8833,79.75,87,79,7.47,broken clouds
57,Jamestown,US,42.097,-79.2353,54.99,76,1,4.61,clear sky
58,Staryy Nadym,RU,65.6118,72.6842,69.94,40,19,18.54,few clouds
59,Ambilobe,MG,-13.2,49.05,77.49,54,67,4.45,broken clouds
60,Faqirwali,PK,29.4663,73.034,97.72,31,33,5.28,scattered clouds
61,Trinidad,BO,-14.8333,-64.9,70.21,75,100,4.07,overcast clouds
62,Namibe,AO,-15.1961,12.1522,65.46,70,41,7.56,scattered clouds
63,Mumford,GH,5.2618,-0.759,76.17,89,87,8.03,overcast clouds
64,Lukulu,ZM,-14.3707,23.242,53.91,43,8,4.65,clear sky
65,Carnarvon,AU,-24.8667,113.6333,69.87,35,0,17.27,clear sky
66,Kodiak,US,57.79,-152.4072,47.71,87,90,4.61,overcast clouds
67,Sola,VU,-13.8833,167.55,81.41,76,85,13.18,overcast clouds
68,Yakeshi,CN,49.2833,120.7333,47.1,95,100,23.29,light rain
69,Imatra,FI,61.1719,28.7524,62.87,67,71,1.99,broken clouds
70,Byron Bay,AU,-28.65,153.6167,73.87,41,0,9.1,clear sky
71,East London,ZA,-33.0153,27.9116,59.94,67,0,6.91,clear sky
72,Cumaru,BR,-8.0061,-35.6972,65.77,95,0,4.7,clear sky
73,San Patricio,US,28.017,-97.5169,83.84,81,0,4.7,clear sky
74,Birao,CF,10.2849,22.7882,73.49,80,100,8.39,overcast clouds
75,Boa Vista,BR,2.8197,-60.6733,76.98,88,90,3.44,overcast clouds
76,Viedma,AR,-40.8135,-62.9967,42.01,56,100,3.13,overcast clouds
77,Zeya,RU,53.75,127.2667,61.54,98,100,8.95,heavy intensity rain
78,Provideniya,RU,64.3833,-173.3,44.71,76,90,8.95,light rain
79,Chumikan,RU,54.7183,135.315,45.61,87,100,11.95,light rain
80,Olinda,BR,-8.0089,-34.8553,71.33,83,40,4.61,scattered clouds
81,Karatau,KZ,43.1667,70.4667,84.96,18,59,11.34,broken clouds
82,Santa Maria,BR,-29.6842,-53.8069,40.93,88,54,3.27,broken clouds
83,Vila Franca Do Campo,PT,37.7167,-25.4333,63.01,93,100,12.66,overcast clouds
84,Deputatskiy,RU,69.3,139.9,60.53,51,44,21.61,scattered clouds
85,Oropesa,PE,-13.5928,-71.7719,45.79,91,87,3.94,overcast clouds
86,Puno,PE,-15.8333,-70.0333,39.92,58,74,3.42,broken clouds
87,Yerbogachen,RU,61.2767,108.0108,71.04,41,46,4.79,scattered clouds
88,Borogontsy,RU,62.6683,131.1683,78.49,23,50,5.99,scattered clouds
89,College,US,64.8569,-147.8028,63.21,88,75,3.44,light rain
90,Kruisfontein,ZA,-34.0033,24.7314,54.32,76,0,6.93,clear sky
91,Yucca Valley,US,34.1142,-116.4322,89.06,25,98,1.99,overcast clouds
92,Tromso,NO,69.6496,18.957,46.42,66,20,8.05,few clouds
93,Severo-Kurilsk,RU,50.6789,156.125,49.55,74,77,6.96,broken clouds
94,Hermanus,ZA,-34.4187,19.2345,57.9,82,12,7.43,few clouds
95,Puri,IN,19.8,85.85,83.37,71,100,12.08,heavy intensity rain
96,Codrington,AU,-38.2667,141.9667,55.85,86,95,5.59,overcast clouds
97,Sur,OM,22.5667,59.5289,97.72,36,0,6.62,clear sky
98,Cabo San Lucas,MX,22.8909,-109.9124,87.8,70,24,16.24,few clouds
99,Ahipara,NZ,-35.1667,173.1667,56.28,84,4,5.77,clear sky
100,Gwadar,PK,25.1216,62.3254,91.18,57,0,9.08,clear sky
101,Port Elizabeth,ZA,-33.918,25.5701,55.69,82,0,6.91,clear sky
102,Floro,NO,61.5996,5.0328,57.27,100,75,17.27,mist
103,Cururupu,BR,-1.8283,-44.8683,73.02,97,5,2.26,clear sky
104,Atuona,PF,-9.8,-139.0333,79.54,75,25,26.02,scattered clouds
105,Egvekinot,RU,66.3167,-179.1667,35.85,92,100,7.14,overcast clouds
106,Rock Springs,US,41.5875,-109.2029,74.64,22,1,5.01,clear sky
107,Hithadhoo,MV,-0.6,73.0833,83.79,73,94,10.29,overcast clouds
108,Ancud,CL,-41.8697,-73.8203,43.23,83,0,8.77,clear sky
109,Pangnirtung,CA,66.1451,-65.7125,35.02,94,100,0.18,overcast clouds
110,Arrifes,PT,37.7667,-25.7,61.05,94,75,9.22,broken clouds
111,High Level,CA,58.5169,-117.136,48.31,93,90,12.66,moderate rain
112,Sawtell,AU,-30.3833,153.1,71.92,52,0,5.75,clear sky
113,Sorland,NO,67.667,12.6934,46.47,93,100,14.88,overcast clouds
114,Esperance,AU,-33.8667,121.9,58.84,56,89,7.14,overcast clouds
115,Bethel,US,41.3712,-73.414,61.48,77,1,0.0,clear sky
116,Haapiti,PF,-17.5667,-149.8667,78.53,79,100,19.42,light rain
117,Bijie,CN,27.3125,105.2942,79.7,68,96,8.68,overcast clouds
118,Burnie,AU,-41.0667,145.9167,55.06,78,43,2.21,scattered clouds
119,Benghazi,LY,32.1167,20.0667,73.24,50,0,6.49,clear sky
120,Garissa,KE,-0.4536,39.6401,79.03,56,65,18.61,broken clouds
121,Puerto Ayora,EC,-0.7393,-90.3518,73.54,90,44,4.0,scattered clouds
122,Lompoc,US,34.6391,-120.4579,68.77,77,1,3.44,clear sky
123,Kaitangata,NZ,-46.2817,169.8464,47.93,83,98,5.35,overcast clouds
124,Mehamn,NO,71.0357,27.8492,44.51,71,97,26.33,light rain
125,Nome,US,64.5011,-165.4064,60.17,80,1,9.22,clear sky
126,New Norfolk,AU,-42.7826,147.0587,52.57,84,100,1.99,overcast clouds
127,Takoradi,GH,4.8845,-1.7554,76.8,87,93,8.01,light rain
128,Acapulco,MX,16.8634,-99.8901,78.26,90,100,7.29,overcast clouds
129,Kamenka,RU,51.3223,42.7678,72.32,74,1,12.33,clear sky
130,Thompson,CA,55.7435,-97.8558,59.16,88,90,20.71,overcast clouds
131,Tura,IN,25.5198,90.2201,86.85,64,76,6.73,broken clouds
132,Cayenne,GF,4.9333,-52.3333,75.24,91,75,0.0,broken clouds
133,Inirida,CO,3.8653,-67.9239,71.91,99,94,0.69,overcast clouds
134,Grand Gaube,MU,-20.0064,57.6608,73.38,77,22,5.99,light rain
135,Komsomolskiy,UZ,40.4272,71.7189,83.62,26,0,6.91,clear sky
136,Leon,MX,21.1167,-101.6667,62.6,66,19,10.67,few clouds
137,Wanaka,NZ,-44.7,169.15,41.83,87,93,4.29,overcast clouds
138,Matay,EG,28.419,30.7792,76.5,38,0,15.46,clear sky
139,Kavaratti,IN,10.5669,72.642,83.23,81,61,23.73,broken clouds
140,Mar Del Plata,AR,-38.0023,-57.5575,43.12,35,75,3.0,broken clouds
141,Gat,IL,31.61,34.7642,75.78,10,67,6.6,broken clouds
142,Portland,US,45.5234,-122.6762,68.04,63,0,3.0,clear sky
143,Vardo,NO,70.3705,31.1107,48.4,53,20,20.71,few clouds
144,Chokurdakh,RU,70.6333,147.9167,42.62,84,100,15.88,light rain
145,Kuching,MY,1.55,110.3333,79.02,89,40,2.3,scattered clouds
146,Taoudenni,ML,22.6783,-3.9836,92.32,11,17,0.45,few clouds
147,Cherskiy,RU,68.75,161.3,48.9,54,100,5.57,overcast clouds
148,Puerto Escondido,MX,15.85,-97.0667,78.64,84,100,8.3,overcast clouds
149,Bredasdorp,ZA,-34.5322,20.0403,58.32,77,2,10.36,clear sky
150,Mount Pleasant,US,32.7941,-79.8626,72.99,97,1,1.99,mist
151,Senanga,ZM,-16.1167,23.2667,54.28,45,1,4.16,clear sky
152,Faanui,PF,-16.4833,-151.75,80.51,77,89,21.34,light rain
153,Tasiilaq,GL,65.6145,-37.6368,31.59,79,96,2.84,overcast clouds
154,Hamilton,US,39.1834,-84.5333,64.15,79,20,0.0,few clouds
155,Emerald,AU,-23.5333,148.1667,79.34,33,29,9.22,scattered clouds
156,Hofn,IS,64.2539,-15.2082,40.87,60,100,18.81,light rain
157,Korla,CN,41.7597,86.1469,83.23,13,100,13.71,overcast clouds
158,Porto Novo,BJ,6.4965,2.6036,76.82,85,99,4.76,overcast clouds
159,Xingtai,CN,37.0631,114.4942,82.83,46,97,7.07,overcast clouds
160,Boddam,GB,57.4667,-1.7833,56.39,83,90,5.19,overcast clouds
161,Havelock,US,34.8791,-76.9013,75.15,92,1,3.44,clear sky
162,Pevek,RU,69.7008,170.3133,32.31,91,96,13.04,overcast clouds
163,Hanzhong,CN,33.0728,107.0303,62.73,89,100,1.07,light rain
164,Northam,GB,51.0333,-4.2167,58.01,91,99,11.05,overcast clouds
165,Mana,GF,5.6592,-53.7767,76.32,91,100,7.47,overcast clouds
166,Abha,SA,18.2164,42.5053,75.45,23,0,6.91,clear sky
167,Ribnica,SI,45.7386,14.7275,72.46,62,1,1.7,clear sky
168,Krasnoarmeysk,RU,51.0239,45.6969,70.88,74,0,13.98,clear sky
169,Talnakh,RU,69.4865,88.3972,55.51,89,94,8.81,overcast clouds
170,Heihe,CN,50.2441,127.4902,72.18,58,70,20.13,broken clouds
171,Rundu,NA,-17.9333,19.7667,51.66,40,4,4.41,clear sky
172,Husavik,IS,66.0449,-17.3389,37.31,84,100,7.99,overcast clouds
173,Lasa,IT,46.6166,10.7002,67.08,79,34,2.68,scattered clouds
174,Isangel,VU,-19.55,169.2667,77.04,84,53,6.42,broken clouds
175,Nizhneivkino,RU,58.194,49.5214,64.31,47,52,8.95,broken clouds
176,Roald,NO,62.5833,6.1333,61.16,94,75,4.61,broken clouds
177,Saint-Fons,FR,45.7,4.8667,75.52,64,0,9.22,clear sky
178,Uaua,BR,-9.8414,-39.4817,64.62,95,1,8.43,clear sky
179,Yellowknife,CA,62.456,-114.3525,54.12,66,75,14.97,broken clouds
180,Kendari,ID,-3.945,122.4989,80.47,84,96,2.82,overcast clouds
181,Amga,RU,60.8953,131.9608,76.19,23,92,9.42,overcast clouds
182,Palomares,MX,17.15,-95.0667,72.1,95,100,4.59,overcast clouds
183,Yelan-Koleno,RU,51.1523,41.2306,72.52,74,27,12.82,scattered clouds
184,Kavieng,PG,-2.5744,150.7967,83.89,67,87,5.35,overcast clouds
185,Beringovskiy,RU,63.05,179.3167,42.44,79,98,15.75,overcast clouds
186,Huarmey,PE,-10.0681,-78.1522,65.95,88,54,9.89,broken clouds
187,Vanimo,PG,-2.6741,141.3028,82.2,77,44,5.53,scattered clouds
188,Usinsk,RU,65.9939,57.5281,51.85,42,89,15.1,overcast clouds
189,Mutis,CO,6.2262,-77.4044,78.21,89,90,1.25,moderate rain
190,Vikhorevka,RU,56.1201,101.1636,74.79,27,19,4.56,few clouds
191,Quelimane,MZ,-17.8786,36.8883,66.15,94,75,0.0,broken clouds
192,Lorengau,PG,-2.0226,147.2712,84.42,67,68,7.94,broken clouds
193,Tikamgarh,IN,24.745,78.8333,100.81,26,52,9.98,broken clouds
194,Upernavik,GL,72.7868,-56.1549,33.13,90,24,4.34,few clouds
195,Vilyuysk,RU,63.7553,121.6247,77.86,28,100,9.95,overcast clouds
196,Izhma,RU,65.0083,53.9113,55.98,33,54,7.0,broken clouds
197,Chernyshevskiy,RU,63.0128,112.4714,70.99,37,51,5.7,broken clouds
198,Mount Isa,AU,-20.7333,139.5,76.77,20,53,6.91,broken clouds
199,Sovetskiy,RU,61.3614,63.5842,62.24,61,64,12.95,broken clouds
200,Berlevag,NO,70.8578,29.0864,44.55,65,75,24.16,broken clouds
201,Kuryk,KZ,43.2,51.65,90.88,22,0,20.22,clear sky
202,State College,US,40.7934,-77.86,52.45,76,40,1.99,scattered clouds
203,Leningradskiy,RU,69.3833,178.4167,39.67,85,100,10.18,overcast clouds
204,Luwuk,ID,-0.9516,122.7875,83.07,76,33,4.94,scattered clouds
205,Auki,SB,-8.7676,160.7034,84.15,69,8,2.48,clear sky
206,Aklavik,CA,68.2191,-135.0107,50.83,53,100,12.84,overcast clouds
207,Cooma,AU,-36.2333,149.1333,47.97,57,40,18.41,scattered clouds
208,Sol-Iletsk,RU,51.1631,54.9918,81.0,50,5,12.3,clear sky
209,Kijabe,KE,-0.933,36.5758,57.42,93,93,2.82,overcast clouds
210,Vostok,RU,46.4856,135.8833,82.67,21,100,7.14,overcast clouds
211,Teguise,ES,29.0605,-13.564,66.42,73,75,9.22,broken clouds
212,Mahebourg,MU,-20.4081,57.7,73.26,83,75,11.5,broken clouds
213,Vao,NC,-22.6667,167.4833,71.56,76,56,8.14,broken clouds
214,Neiafu,TO,-18.65,-173.9833,77.68,83,75,2.3,broken clouds
215,Bulawayo,ZW,-20.15,28.5833,56.03,41,0,2.91,clear sky
216,Mattru,SL,7.6244,-11.8332,72.91,94,52,1.01,broken clouds
217,Merauke,ID,-8.4667,140.3333,82.02,74,40,15.61,scattered clouds
218,Nurota,UZ,40.5614,65.6886,89.69,12,0,16.73,clear sky
219,Georgetown,MY,5.4112,100.3354,87.73,86,40,10.0,light rain
220,Tiksi,RU,71.6872,128.8694,42.39,83,61,7.65,broken clouds
221,Broken Hill,AU,-31.95,141.4333,60.51,51,40,13.8,scattered clouds
222,Sinnar,SD,13.5691,33.5672,86.4,52,71,11.45,broken clouds
223,Fairbanks,US,64.8378,-147.7164,63.23,88,75,5.75,light rain
224,Hue,VN,16.4667,107.6,96.91,46,20,6.91,few clouds
225,Esmeraldas,BR,-19.7625,-44.3139,59.86,69,3,3.83,clear sky
226,Cheremukhovo,RU,60.3484,59.9851,64.96,43,69,11.61,broken clouds
227,Tuatapere,NZ,-46.1333,167.6833,43.83,90,57,4.25,broken clouds
228,Khuzhir,RU,53.1939,107.3397,53.83,68,12,3.62,light rain
229,Faya,SA,18.3851,42.4509,75.72,20,79,2.89,broken clouds
230,Te Anau,NZ,-45.4167,167.7167,42.71,81,76,3.98,broken clouds
231,Nikolskoye,RU,59.7035,30.7861,66.09,46,46,7.43,scattered clouds
232,Mutum,BR,-19.8,-41.4383,59.49,92,5,2.44,clear sky
233,Shimanovsk,RU,52.0,127.7,62.38,93,100,17.58,light rain
234,Ponta Do Sol,PT,32.6667,-17.1,68.72,79,35,11.12,scattered clouds
235,Alyangula,AU,-13.8483,136.4192,82.27,83,75,5.75,broken clouds
236,Ekibastuz,KZ,51.6667,75.3667,84.43,34,46,6.6,scattered clouds
237,Sitka,US,57.0531,-135.33,55.29,71,75,6.91,broken clouds
238,Huescar,ES,37.811,-2.5412,62.26,87,94,4.9,overcast clouds
239,Marawi,PH,7.9986,124.2928,80.65,84,49,1.97,scattered clouds
240,Alta Floresta,BR,-9.8756,-56.0861,74.73,66,92,0.16,overcast clouds
241,Cam Ranh,VN,11.9214,109.1591,93.16,49,20,10.36,few clouds
242,Saint-Leu,RE,-21.15,55.2833,74.95,86,8,9.64,clear sky
243,Nemuro,JP,43.3236,145.575,63.03,86,90,10.13,overcast clouds
244,Krasnovishersk,RU,60.4078,57.082,63.54,48,48,9.89,scattered clouds
245,Souillac,MU,-20.5167,57.5167,73.36,83,75,11.5,broken clouds
246,Riohacha,CO,11.5444,-72.9072,79.54,79,61,15.14,broken clouds
247,Coquimbo,CL,-29.9533,-71.3436,51.53,87,20,6.91,few clouds
248,Clyde River,CA,70.4692,-68.5914,37.63,87,90,0.0,light rain
249,Ewo,CG,-0.8725,14.8206,73.47,83,99,5.28,overcast clouds
250,Fort Nelson,CA,58.8053,-122.7002,56.79,72,90,12.66,overcast clouds
251,Bairnsdale,AU,-37.8333,147.6167,57.7,73,77,1.99,broken clouds
252,Awbari,LY,26.5921,12.7805,81.41,17,0,8.88,clear sky
253,Aktas,KZ,49.7789,72.9608,83.95,28,3,10.56,clear sky
254,Saskylakh,RU,71.9167,114.0833,67.91,53,83,5.86,broken clouds
255,Sawakin,SD,19.1059,37.3321,93.74,32,99,11.14,overcast clouds
256,Beidao,CN,34.5686,105.8933,59.76,75,100,3.85,light rain
257,Waipawa,NZ,-41.4122,175.5153,51.46,89,59,4.45,broken clouds
258,Placido De Castro,BR,-10.3353,-67.1856,74.97,71,75,4.09,broken clouds
259,Tula,RU,54.2044,37.6111,69.6,62,3,8.86,clear sky
260,Barraute,CA,48.4335,-77.6328,48.47,60,49,4.36,scattered clouds
261,Schmallenberg,DE,51.15,8.3,74.52,68,74,5.21,broken clouds
262,Volchikha,RU,52.0333,80.3833,84.56,32,66,7.99,broken clouds
263,Miraflores,MX,19.2167,-98.8083,61.03,80,100,4.61,overcast clouds
264,Petropavlovsk-Kamchatskiy,RU,53.0452,158.6483,64.99,45,0,6.71,clear sky
265,Itarema,BR,-2.9248,-39.9167,76.62,86,5,9.84,clear sky
266,Tieli,CN,46.95,128.05,67.06,85,100,13.96,overcast clouds
267,Yenisehir,TR,40.2644,29.6531,59.05,100,75,3.44,mist
268,Yulara,AU,-25.2406,130.9889,62.44,39,91,8.05,overcast clouds
269,Nanortalik,GL,60.1432,-45.2371,35.85,90,91,4.07,overcast clouds
270,Bracciano,IT,42.1031,12.1754,73.65,63,86,1.99,overcast clouds
271,Crixas,BR,-14.5489,-49.9692,66.65,38,14,4.81,few clouds
272,Rudbar,AF,30.15,62.6,95.52,5,0,16.69,clear sky
273,Voznesenye,RU,61.0106,35.4781,56.41,58,100,2.75,light rain
274,Hasaki,JP,35.7333,140.8333,80.19,70,83,14.07,broken clouds
275,Maningrida,AU,-12.0667,134.2667,87.31,51,54,9.84,broken clouds
276,Teahupoo,PF,-17.8333,-149.2667,73.36,85,100,19.26,light rain
277,Havre-Saint-Pierre,CA,50.2334,-63.5986,46.99,100,90,2.3,overcast clouds
278,Ribeira Grande,PT,38.5167,-28.7,65.89,87,100,18.77,overcast clouds
279,Labuhan,ID,-6.8844,112.2051,85.55,64,100,5.14,overcast clouds
280,Palmer,US,42.1584,-72.3287,57.61,76,1,0.0,clear sky
281,Sabha,LY,27.0377,14.4283,82.04,19,0,14.81,clear sky
282,Ottawa,CA,45.4112,-75.6981,52.68,66,1,5.75,clear sky
283,Kabinda,CD,-6.1333,24.4833,68.61,34,70,4.25,broken clouds
284,Kahului,US,20.8947,-156.47,78.82,77,40,14.97,scattered clouds
285,Luderitz,NA,-26.6481,15.1594,58.14,71,27,4.99,scattered clouds
286,Tanout,NE,14.9709,8.8879,81.23,49,87,5.44,overcast clouds
287,Longyearbyen,SJ,78.2186,15.6401,31.15,79,59,3.65,broken clouds
288,Misratah,LY,32.3754,15.0925,73.44,61,0,9.4,clear sky
289,Umm Lajj,SA,25.0213,37.2685,86.23,53,0,13.22,clear sky
290,Posse,BR,-14.0931,-46.3694,65.55,64,6,3.15,clear sky
291,Saint-Francois,FR,46.4154,3.9054,72.48,83,0,3.44,clear sky
292,Homer,US,59.6425,-151.5483,55.08,87,75,5.75,broken clouds
293,Boende,CD,-0.2167,20.8667,74.88,71,90,3.29,overcast clouds
294,Chapais,CA,49.7834,-74.8492,49.78,68,88,10.31,overcast clouds
295,Saint-Joseph,RE,-21.3667,55.6167,74.46,77,28,13.27,light rain
296,Jaffna,LK,9.6685,80.0074,84.83,72,100,19.04,overcast clouds
297,Makakilo City,US,21.3469,-158.0858,78.57,65,1,8.05,clear sky
298,Mulanje,MW,-16.0316,35.5,68.14,56,25,0.56,scattered clouds
299,Sibu,MY,2.3,111.8167,86.31,74,40,2.3,scattered clouds
300,Santa Rosa,PH,14.3122,121.1114,93.11,56,50,10.04,scattered clouds
301,Buri,BR,-23.7975,-48.5928,55.22,88,84,7.43,broken clouds
302,Pavlovskiy,RU,57.8424,54.8436,66.02,49,43,12.03,scattered clouds
303,Yinchuan,CN,38.4681,106.2731,77.68,17,52,1.83,broken clouds
304,Vila,PT,42.0304,-8.1588,54.7,91,99,2.04,moderate rain
305,Kwekwe,ZW,-18.9281,29.8149,54.75,60,0,3.02,clear sky
306,Eureka,US,40.8021,-124.1637,59.67,73,5,4.79,clear sky
307,Karema,TZ,-6.8205,30.4389,69.94,51,76,8.34,broken clouds
308,Talgar,KZ,43.3027,77.2395,78.96,20,75,6.71,broken clouds
309,Keetmanshoop,NA,-26.5833,18.1333,50.92,57,0,1.14,clear sky
310,Laguna,US,38.421,-121.4238,83.32,42,75,1.01,broken clouds
311,Bubaque,GW,11.2833,-15.8333,80.47,84,57,10.13,broken clouds
312,Uray,RU,60.1247,64.7758,73.53,60,54,11.39,broken clouds
313,Shevchenko,UA,48.5,35.0,65.44,93,40,11.18,moderate rain
314,Bria,CF,6.5423,21.9863,67.69,98,100,4.5,light rain
315,Yeppoon,AU,-23.1333,150.7333,80.38,71,22,3.94,few clouds
316,Maumere,ID,-8.6199,122.2111,84.06,63,22,5.93,few clouds
317,Flinders,AU,-34.5833,150.8552,59.05,66,0,16.96,clear sky
318,Norman Wells,CA,65.282,-126.8329,66.24,42,1,5.75,clear sky
319,Beloha,MG,-25.1667,45.05,68.47,55,0,9.24,clear sky
320,Rockport,US,28.0206,-97.0544,84.0,84,1,0.0,clear sky
321,Waynesville,US,35.4887,-82.9887,60.64,74,2,1.99,clear sky
322,Beira,MZ,-19.8436,34.8389,64.49,100,20,3.44,mist
323,Riachao Do Jacuipe,BR,-11.8069,-39.3856,64.06,96,2,3.11,clear sky
324,Karlskoga,SE,59.3267,14.5239,66.38,55,75,5.59,broken clouds
325,Crestview,US,30.7621,-86.5705,78.24,84,1,0.0,clear sky
326,Zaraza,VE,9.3503,-65.3245,72.28,97,94,2.75,overcast clouds
327,Abu Zabad,SD,12.35,29.25,81.97,57,100,11.72,overcast clouds
328,Micheweni,TZ,-4.9667,39.8333,78.78,63,92,11.25,overcast clouds
329,Saldanha,ZA,-33.0117,17.9442,53.65,87,2,5.79,clear sky
330,Prince Rupert,CA,54.3161,-130.3201,53.69,82,75,4.61,broken clouds
331,Inhambane,MZ,-23.865,35.3833,57.18,94,20,0.0,few clouds
332,Kigoma,TZ,-4.8769,29.6267,61.39,94,0,0.0,clear sky
333,Tongliao,CN,43.6125,122.2653,80.38,21,16,11.79,few clouds
334,Kirakira,SB,-10.4544,161.9205,83.16,76,84,8.86,broken clouds
335,Novi Ligure,IT,44.7608,8.7896,76.66,80,84,2.01,broken clouds
336,Chaykovskiy,RU,56.7686,54.1148,66.81,49,78,13.73,broken clouds
337,Kasempa,ZM,-13.4584,25.8338,56.25,51,5,6.64,clear sky
338,Isoka,ZM,-10.1606,32.6335,59.25,65,30,2.59,scattered clouds
339,Porto Velho,BR,-8.7619,-63.9039,75.25,94,40,3.44,scattered clouds
340,Grafton,US,42.207,-71.6856,57.49,79,1,11.5,clear sky
341,Ostrovnoy,RU,68.0531,39.5131,49.46,56,26,9.69,scattered clouds
342,Miandrivazo,MG,-19.5167,45.4667,75.58,49,0,4.0,clear sky
343,Agadez,NE,19.75,10.25,82.83,13,1,7.29,clear sky
344,Andreapol,RU,56.6513,32.2664,67.06,45,23,0.18,few clouds
345,Vestmannaeyjar,IS,63.4427,-20.2734,41.16,67,92,12.73,light rain
346,Lavrentiya,RU,65.5833,-171.0,40.03,94,88,4.36,overcast clouds
347,Brokopondo,SR,4.75,-55.1667,75.97,90,100,6.42,overcast clouds
348,Sergeyevka,KZ,53.88,67.4158,88.29,31,34,11.07,scattered clouds
349,Kuusamo,FI,65.9667,29.1833,51.84,62,0,10.36,clear sky
350,Carutapera,BR,-1.195,-46.02,74.53,94,8,4.76,clear sky
351,Dzhebariki-Khaya,RU,62.2167,135.8,78.37,19,8,5.19,clear sky
352,Plyussa,RU,58.4308,29.3654,66.16,49,35,4.68,scattered clouds
353,Luganville,VU,-15.5333,167.1667,80.31,83,71,7.16,broken clouds
354,Saint Pete Beach,US,27.7253,-82.7412,76.15,90,40,5.99,scattered clouds
355,Ukiah,US,39.1502,-123.2078,73.44,49,1,0.0,clear sky
356,Cap Malheureux,MU,-19.9842,57.6142,73.47,77,17,5.99,light rain
357,Mikumi,TZ,-7.4041,36.9831,70.56,61,51,2.06,broken clouds
358,Richards Bay,ZA,-28.783,32.0377,67.98,82,83,12.57,broken clouds
359,Poronaysk,RU,49.2167,143.1167,55.94,87,34,8.37,scattered clouds
360,Tabou,CI,4.423,-7.3528,76.8,84,100,4.85,overcast clouds
361,Prieska,ZA,-29.6641,22.7474,50.0,55,23,2.59,few clouds
362,Caravelas,BR,-17.7125,-39.2481,69.31,79,23,3.76,few clouds
363,Iqaluit,CA,63.7506,-68.5145,35.33,74,40,11.99,scattered clouds
364,Kitgum,UG,3.2783,32.8867,69.03,87,100,2.66,light rain
365,Hambantota,LK,6.1241,81.1185,89.94,62,20,17.27,few clouds
366,Tuni,IN,17.35,82.55,92.17,52,100,18.37,overcast clouds
367,Venado Tuerto,AR,-33.7456,-61.9688,40.78,82,94,2.77,overcast clouds
368,Avarua,CK,-21.2078,-159.775,76.8,80,27,22.57,light rain
369,Fukuma,JP,33.7667,130.4667,87.1,76,99,11.25,light rain
370,Kirkwall,GB,58.9848,-2.9587,50.34,81,20,3.44,few clouds
371,Muros,ES,42.7762,-9.0603,64.24,90,100,7.56,light rain
372,Griffith,US,41.5284,-87.4237,63.05,82,1,0.0,clear sky
373,East Wenatchee Bench,US,47.4257,-120.2812,65.39,46,1,6.91,clear sky
374,Mackay,AU,-21.15,149.2,79.05,83,90,9.22,overcast clouds
375,Qaqortoq,GL,60.7167,-46.0333,38.43,83,71,3.24,broken clouds
376,Pemba,MZ,-12.974,40.5178,74.1,80,22,10.96,few clouds
377,Comodoro Rivadavia,AR,-45.8667,-67.5,31.86,74,0,8.05,clear sky
378,Key West,US,24.5557,-81.7826,78.01,72,100,14.45,overcast clouds
379,Paracatu,BR,-17.2222,-46.8747,59.34,42,1,3.78,clear sky
380,Sioux Lookout,CA,50.1001,-91.917,70.18,52,75,5.75,broken clouds
381,Sorong,ID,-0.8833,131.25,82.17,74,53,6.58,broken clouds
382,Moses Lake,US,47.1301,-119.2781,68.36,32,1,4.61,clear sky
383,Soyo,AO,-6.1349,12.3689,74.88,82,85,5.91,overcast clouds
384,Guilin,CN,25.2819,110.2864,91.51,63,56,4.85,broken clouds
385,Big Rapids,US,43.6981,-85.4837,54.61,88,1,0.0,clear sky
386,Seydi,TM,39.4816,62.9137,96.44,8,0,17.43,clear sky
387,Masvingo,ZW,-20.0637,30.8277,59.16,43,0,3.58,clear sky
388,Geraldton,AU,-28.7667,114.6,67.12,48,0,12.66,clear sky
389,Atar,MR,20.5169,-13.0499,83.37,22,4,7.7,clear sky
390,Herat,AF,34.5,62.0,79.39,11,0,24.96,clear sky
391,Trincomalee,LK,8.5711,81.2335,90.45,53,100,19.33,overcast clouds
392,Saint George,US,37.1041,-113.5841,99.19,15,1,1.99,clear sky
393,Narsaq,GL,60.9167,-46.05,37.76,78,59,3.51,broken clouds
394,Olginskaya,RU,47.1879,39.9492,72.88,87,100,5.48,light rain
395,Tabuk,PH,17.4189,121.4443,93.96,50,67,4.27,broken clouds
396,Savinka,RU,50.0785,47.0994,79.65,60,3,10.18,clear sky
397,Sarai,RU,53.7458,41.0213,66.42,61,0,10.2,clear sky
398,Qui Nhon,VN,13.7667,109.2333,89.69,63,29,17.34,scattered clouds
399,Palasa,IN,18.7667,84.4167,91.98,52,100,9.22,overcast clouds
400,Monte Alegre,BR,-2.0078,-54.0692,72.12,96,22,3.38,few clouds
401,Tevaitoa,PF,-16.7833,-151.5,79.93,78,99,21.99,light rain
402,Puerto Del Rosario,ES,28.5004,-13.8627,69.55,78,40,16.11,scattered clouds
403,Sayansk,RU,54.1088,102.1648,68.4,40,47,5.75,scattered clouds
404,Constitucion,CL,-35.3333,-72.4167,52.7,86,1,4.52,clear sky
405,Bahia De Caraquez,EC,-0.6,-80.4167,73.58,87,100,8.3,overcast clouds
406,Shimoda,JP,34.6667,138.95,81.16,66,57,9.44,broken clouds
407,Salalah,OM,17.0151,54.0924,87.76,69,67,10.94,broken clouds
408,Bonfim,BR,3.0833,-59.95,73.47,96,100,2.42,overcast clouds
409,Baghdad,IQ,33.3406,44.4009,84.11,32,0,26.46,clear sky
410,Kiruna,SE,67.8557,20.2251,43.72,65,90,8.05,overcast clouds
411,Lensk,RU,60.7253,114.9278,72.75,35,99,9.4,overcast clouds
412,Mbini,GQ,1.574,9.6134,75.04,89,100,5.28,moderate rain
413,Vilhena,BR,-12.7406,-60.1458,67.37,74,97,3.38,overcast clouds
414,Stornoway,GB,58.2093,-6.3865,51.93,87,75,16.11,broken clouds
415,Coihaique,CL,-45.5752,-72.0662,21.15,93,1,0.0,clear sky
416,Vylkove,UA,45.4021,29.586,67.1,72,38,8.32,scattered clouds
417,Antalaha,MG,-14.9003,50.2788,77.11,63,55,11.16,broken clouds
418,Savalou,BJ,7.9281,1.9756,72.21,91,37,2.35,scattered clouds
419,Irbil,IQ,36.1926,44.0106,76.82,41,0,6.91,clear sky
420,Leshukonskoye,RU,64.8989,45.7622,51.82,65,100,3.38,overcast clouds
421,Oeiras,BR,-7.0253,-42.1311,71.31,57,29,4.38,scattered clouds
422,Nazare,BR,-13.035,-39.0144,66.36,96,38,2.33,scattered clouds
423,Muli,MV,2.9167,73.5667,83.86,74,91,10.31,overcast clouds
424,Nizhniy Kuranakh,RU,58.8353,125.4869,68.25,54,100,8.99,overcast clouds
425,Mareeba,AU,-17.0,145.4333,83.44,67,20,5.59,few clouds
426,Roebourne,AU,-20.7833,117.1333,71.2,33,100,20.38,overcast clouds
427,Luan,CH,46.3592,6.9759,66.04,71,90,1.99,overcast clouds
428,Teyateyaneng,LS,-29.1472,27.7489,46.9,45,97,3.83,overcast clouds
429,Murgab,TM,37.4966,61.9714,89.47,23,0,6.91,clear sky
430,Tateyama,JP,34.9833,139.8667,78.1,68,70,11.68,broken clouds
431,Sao Felix Do Xingu,BR,-6.6447,-51.995,72.01,79,74,0.51,broken clouds
432,Llangefni,GB,53.2556,-4.3106,57.65,92,82,5.23,broken clouds
433,Pisco,PE,-13.7,-76.2167,63.01,88,50,4.61,scattered clouds
434,Klaksvik,FO,62.2266,-6.589,49.12,89,61,18.61,broken clouds
435,Matagami,CA,49.7502,-77.6328,37.51,81,1,4.61,clear sky
436,Khoy,IR,38.5504,44.9535,88.32,22,0,2.3,clear sky
437,Tessalit,ML,20.1986,1.0114,87.76,12,0,15.37,clear sky
438,Urubicha,BO,-15.3833,-62.95,68.32,68,86,5.59,overcast clouds
439,Jhabua,IN,22.7667,74.6,93.36,44,13,13.65,few clouds
440,Belmonte,BR,-15.8631,-38.8828,66.7,79,7,2.91,clear sky
441,Jacareacanga,BR,-6.2222,-57.7528,71.53,98,100,1.21,overcast clouds
442,Portel,BR,-1.9356,-50.8211,75.56,88,64,1.7,moderate rain
443,Fukue,JP,32.6881,128.8419,71.96,100,75,5.75,mist
444,Moscow,RU,55.7522,37.6156,70.03,45,11,6.11,few clouds
445,Sri Aman,MY,1.2376,111.4621,86.09,70,40,3.44,scattered clouds
446,Andenes,NO,69.3143,16.1194,46.38,71,75,11.5,broken clouds
447,Malysheva,RU,57.1185,61.4035,73.38,54,81,12.53,broken clouds
448,Paso De Los Toros,UY,-32.8167,-56.5167,39.72,90,62,6.42,broken clouds
449,Jinchang,CN,38.4953,102.1739,71.71,18,75,8.39,broken clouds
450,Sterling,US,39.0062,-77.4286,66.6,66,75,3.0,broken clouds
451,Axim,GH,4.8699,-2.2405,77.07,86,92,7.54,light rain
452,Debre Tabor,ET,11.85,38.0167,63.5,49,71,3.49,broken clouds
453,Lashma,RU,54.9321,41.1438,68.97,44,2,6.96,clear sky
454,Camopi,GF,3.1655,-52.3158,70.45,100,91,1.77,overcast clouds
455,Umm Kaddadah,SD,13.6017,26.6876,81.39,45,100,4.16,overcast clouds
456,Paramonga,PE,-10.6667,-77.8333,65.26,89,84,9.37,broken clouds
457,Havoysund,NO,70.9963,24.6622,43.68,75,100,23.0,overcast clouds
458,Zhaotong,CN,27.3167,103.7167,82.22,51,93,4.81,overcast clouds
459,Tran,BG,42.8353,22.6517,65.43,82,16,2.77,few clouds
460,Taltal,CL,-25.4,-70.4833,59.58,69,1,1.88,clear sky
461,Vagur,FO,61.4732,-6.8119,47.89,93,43,20.07,scattered clouds
462,Ginir,ET,7.1333,40.7,66.54,59,100,5.14,overcast clouds
463,Jumla,NP,29.2747,82.1838,60.66,94,100,3.62,overcast clouds
464,Teknaf,BD,20.8624,92.3058,78.82,92,100,8.43,overcast clouds
465,Tulum,MX,20.2167,-87.4667,77.65,94,100,10.51,overcast clouds
466,Camacha,PT,33.0833,-16.3333,65.62,88,75,18.41,broken clouds
467,Port Macquarie,AU,-31.4333,152.9167,66.16,44,0,9.82,clear sky
468,Shebalino,RU,51.2917,85.6772,76.53,34,16,5.44,light rain
469,Taungdwingyi,MM,20.0167,95.55,74.8,92,100,13.65,overcast clouds
470,Tianpeng,CN,30.9866,103.9393,72.07,86,100,4.76,overcast clouds
471,Emba,KZ,48.8264,58.1442,93.87,14,3,13.38,clear sky
472,Kenai,US,60.5544,-151.2583,55.02,76,75,0.0,broken clouds
473,Victor Harbor,AU,-35.5667,138.6167,55.47,66,54,10.27,heavy intensity rain
474,Velykyy Burluk,UA,50.0379,37.3987,70.93,80,75,14.79,broken clouds
475,Bokhan,RU,53.153,103.7714,68.47,45,81,12.5,broken clouds
476,Kolosovka,RU,56.4678,73.611,76.73,53,25,6.08,scattered clouds
477,Babol,IR,36.5513,52.679,84.27,46,0,5.44,clear sky
478,Angoche,MZ,-16.2325,39.9086,75.97,65,0,4.88,clear sky
479,Vladyslavivka,UA,45.1667,35.3667,65.12,86,100,22.1,overcast clouds
480,Evensk,RU,61.95,159.2333,43.23,95,100,6.22,moderate rain
481,Mackenzie,CA,55.2999,-123.1698,59.22,44,90,2.3,overcast clouds
482,Vermilion,US,40.1667,-87.7506,62.6,58,1,0.0,clear sky
483,Rocha,UY,-34.4833,-54.3333,49.41,69,100,8.52,overcast clouds
484,Aswan,EG,24.0934,32.907,88.16,23,0,18.41,clear sky
485,Lalsk,RU,60.7415,47.5862,57.7,72,48,7.36,scattered clouds
486,Dunedin,NZ,-45.8742,170.5036,43.81,84,100,1.01,overcast clouds
487,Tahe,CN,52.3333,124.7333,63.14,66,87,13.8,light rain
488,Koumac,NC,-20.5667,164.2833,74.88,79,70,7.0,broken clouds
489,Nouadhibou,MR,20.931,-17.0347,66.27,87,0,22.93,clear sky
490,Coahuayana,MX,18.7333,-103.6833,81.36,89,100,2.35,overcast clouds
491,Bathsheba,BB,13.2167,-59.5167,79.41,73,75,29.93,moderate rain
492,Waddan,LY,29.1614,16.139,75.78,44,16,10.65,few clouds
493,Baracoa,CU,20.3467,-74.4958,79.7,83,55,4.83,broken clouds
494,Hvolsvollur,IS,63.7533,-20.2243,38.8,63,100,8.66,overcast clouds
495,New Iberia,US,30.0035,-91.8187,80.96,74,95,6.22,overcast clouds
496,Mlimba,TZ,-8.8,35.8167,71.96,53,23,1.28,few clouds
497,Zhuhai,CN,22.2769,113.5678,91.18,79,40,14.97,scattered clouds
498,Hualmay,PE,-11.0964,-77.6139,64.9,88,76,9.17,broken clouds
499,Gastouri,GR,39.56,19.8975,70.21,88,20,0.0,few clouds
500,Bac Lieu,VN,9.285,105.7244,91.38,54,63,6.26,broken clouds
501,Cobija,BO,-11.0267,-68.7692,73.31,75,78,2.04,broken clouds
502,Cao Bang,VN,22.6667,106.25,91.11,63,78,6.64,broken clouds
503,Walvis Bay,NA,-22.9575,14.5053,54.09,100,0,6.91,clear sky
504,Puerto Maldonado,PE,-12.6,-69.1833,71.91,82,100,3.02,overcast clouds
505,Nedjo,ET,9.5046,35.5019,65.16,79,100,1.07,light rain
506,Port Augusta,AU,-32.5,137.7667,60.94,52,79,16.49,broken clouds
507,Elko,US,41.0002,-115.5012,70.23,19,94,4.56,overcast clouds
508,Kassala,SD,15.451,36.4,89.69,43,57,17.45,broken clouds
509,Miles City,US,46.4083,-105.8406,68.5,33,0,6.15,clear sky
510,Visby,SE,57.6409,18.296,63.05,72,0,9.22,clear sky
511,Karpinsk,RU,59.7654,60.0085,67.62,43,83,12.19,broken clouds
512,Grindavik,IS,63.8424,-22.4338,39.67,70,75,17.27,broken clouds
513,Saint-Augustin,CA,51.226,-58.6502,45.79,98,100,12.55,overcast clouds
514,Nipawin,CA,53.3668,-104.0009,59.04,62,1,8.05,clear sky
515,Ngunguru,NZ,-35.6167,174.5,58.15,80,25,6.35,scattered clouds
516,Geilo,NO,60.5333,8.2076,59.56,81,16,4.32,few clouds
517,Voi,KE,-3.3945,38.563,73.27,62,96,6.93,overcast clouds
518,Dingle,PH,10.9995,122.6711,90.45,58,8,6.17,clear sky
519,Tombouctou,ML,20.0,-3.0,87.84,10,0,3.42,clear sky
520,Oistins,BB,13.0667,-59.5333,78.89,73,75,29.93,broken clouds
521,Tibu,CO,8.639,-72.7358,72.97,99,100,1.59,overcast clouds
522,Pombas,CV,17.1503,-25.0201,71.38,82,7,11.39,clear sky
523,Shamgarh,IN,24.1833,75.6333,94.32,42,97,13.33,overcast clouds
524,Santiago Del Estero,AR,-27.7951,-64.2615,45.68,71,100,4.14,overcast clouds
525,Klyuchi,RU,52.2667,79.1667,85.39,30,32,7.05,scattered clouds
526,Jhanjharpur,IN,26.2667,86.2833,90.09,61,82,20.02,broken clouds
527,Springbok,ZA,-29.6643,17.8865,45.1,77,0,3.47,clear sky
528,Nizhniy Tsasuchey,RU,50.5167,115.1333,63.21,49,100,23.69,heavy intensity rain
529,Maceio,BR,-9.6658,-35.7353,76.44,88,90,2.3,overcast clouds
530,Mangrol,IN,21.1167,70.1167,87.48,72,74,16.84,broken clouds
531,Soverato,IT,38.685,16.5499,68.9,45,25,1.81,scattered clouds
532,Biltine,TD,14.5333,20.9167,84.2,47,25,3.87,scattered clouds
533,Vestmanna,FO,62.1564,-7.1664,47.32,93,90,10.36,overcast clouds
534,Gondanglegi,ID,-7.7479,112.0132,85.8,64,100,2.82,overcast clouds
535,Inta,RU,66.0317,60.1659,45.27,63,100,12.17,overcast clouds
536,Mirik,IN,26.8945,88.1848,71.82,76,83,6.42,broken clouds
537,Upington,ZA,-28.4478,21.2561,46.78,81,0,4.61,clear sky
538,Samarai,PG,-10.6167,150.6667,79.93,82,99,11.18,overcast clouds
539,Naze,JP,28.3667,129.4833,81.52,75,80,9.01,broken clouds
540,Thinadhoo,MV,0.5333,72.9333,84.27,73,96,9.89,overcast clouds
541,Uppsala,SE,60.0,17.75,66.61,62,40,3.44,scattered clouds
542,The Valley,AI,18.217,-63.0578,81.1,82,96,21.99,overcast clouds
543,Dimapur,IN,25.9,93.7333,89.58,66,75,5.75,haze
544,Amapa,BR,1.0,-52.0,69.91,99,20,0.94,few clouds
545,Lata,PT,40.1629,-8.3327,63.05,95,24,2.71,few clouds
546,Bandarbeyla,SO,9.4942,50.8122,85.53,55,71,28.01,broken clouds
547,Yar-Sale,RU,66.8333,70.8333,61.21,49,86,15.41,overcast clouds
548,Avera,US,33.194,-82.5271,69.71,59,0,4.21,clear sky
549,Kokoda,PG,-8.8785,147.7407,79.57,78,100,1.3,overcast clouds
550,Kissidougou,GN,9.1848,-10.0999,68.38,99,19,4.16,few clouds
551,Kajaani,FI,64.2273,27.7285,53.65,54,0,5.75,clear sky
552,Auburn,US,47.3073,-122.2284,60.82,79,0,1.01,clear sky
553,Pringsewu,ID,-5.3582,104.9744,86.43,66,100,2.48,overcast clouds
554,Pitimbu,BR,-7.4706,-34.8086,73.99,91,32,9.28,scattered clouds
555,Ust-Karsk,RU,52.7011,118.8077,51.24,97,100,12.93,moderate rain
556,Bafq,IR,31.6128,55.4107,96.01,8,0,8.05,clear sky
557,Honningsvag,NO,70.9821,25.9704,43.16,73,99,23.47,overcast clouds
558,Verkhoturye,RU,58.8627,60.8054,70.07,69,92,8.37,overcast clouds
559,Ambon,ID,-3.6954,128.1814,82.54,78,40,3.44,scattered clouds
560,Yumen,CN,40.2833,97.2,77.31,10,99,19.98,light rain
561,Hami,CN,42.8,93.45,86.09,9,100,3.02,overcast clouds
562,Gogrial,SS,8.5332,28.1004,77.83,70,100,7.94,overcast clouds
563,San Quintin,MX,30.4833,-115.95,65.44,81,1,3.24,clear sky
564,Wanning,CN,18.8003,110.3967,90.99,62,39,13.18,moderate rain
565,Jablanica,BA,43.6603,17.7617,60.93,66,28,2.73,scattered clouds
566,Bitung,ID,1.4451,125.1824,90.45,73,44,8.1,scattered clouds
567,Nishihara,JP,26.1842,127.7558,85.28,87,90,11.5,mist
568,Mascota,MX,20.5167,-104.7833,68.31,84,88,2.42,overcast clouds
569,Aitape,PG,-3.1374,142.3475,81.7,78,83,5.3,broken clouds
570,Namatanai,PG,-3.6667,152.4333,83.01,71,85,6.29,light rain
571,Champoton,MX,19.35,-90.7167,75.9,94,100,6.46,overcast clouds
572,Luebo,CD,-5.35,21.4167,67.41,39,57,1.83,broken clouds
573,Raduzhnyy,RU,62.0961,77.475,68.9,31,39,5.26,scattered clouds
574,Baoding,CN,38.8511,115.4903,91.51,18,73,3.76,broken clouds
575,Port Blair,IN,11.6667,92.75,85.57,74,98,16.26,overcast clouds
576,Caetite,BR,-14.0694,-42.475,62.19,73,22,3.74,few clouds
577,Aksu,CN,41.1231,80.2644,81.16,15,34,9.78,scattered clouds
578,Andros Town,BS,24.7,-77.7667,80.56,78,100,9.62,overcast clouds
579,Alice Springs,AU,-23.7,133.8833,62.15,31,90,8.05,overcast clouds
580,Tomatlan,MX,19.9333,-105.25,81.09,81,58,2.24,broken clouds
581,Okhotsk,RU,59.3833,143.3,65.23,42,44,14.74,scattered clouds
582,Itoman,JP,26.1247,127.6694,86.02,84,75,17.27,broken clouds
583,Alofi,NU,-19.0595,-169.9187,76.89,88,68,3.44,broken clouds
584,Brandfort,ZA,-28.7001,26.4597,35.01,43,64,5.7,broken clouds
585,Ushtobe,KZ,45.2514,77.9838,87.57,18,79,7.2,broken clouds
586,Muroto,JP,33.2833,134.15,77.04,73,97,5.86,overcast clouds
587,Flin Flon,CA,54.7682,-101.865,58.91,59,100,11.03,overcast clouds
588,Ziro,IN,27.6333,93.8333,66.94,82,100,1.95,overcast clouds
589,Houma,US,29.5958,-90.7195,82.99,95,70,1.01,broken clouds
590,Ayan,RU,56.45,138.1667,49.51,86,92,3.29,overcast clouds
591,Collecchio,IT,44.754,10.2184,74.19,83,0,1.14,clear sky
592,Krasnoarmeyskoye,RU,52.7182,50.0322,68.2,76,57,13.56,broken clouds
593,Pavilosta,LV,56.8879,21.1859,62.51,60,10,5.79,clear sky
594,Barcelona,ES,41.3888,2.159,77.97,76,20,1.01,few clouds
595,Alekseyevka,RU,50.6309,38.6903,71.83,79,94,13.51,overcast clouds
596,Christchurch,NZ,-43.5333,172.6333,46.9,96,75,3.0,broken clouds
597,Praia,CV,14.9215,-23.5087,72.14,83,20,11.5,few clouds
598,Oruro,BO,-17.9833,-67.15,36.09,36,89,3.65,overcast clouds
599,Moerai,PF,-22.4333,-151.3333,75.2,79,79,24.56,light rain
600,Wegorzewo,PL,54.2157,21.7372,62.67,74,0,7.11,clear sky
601,Padilla,CO,3.2204,-76.3139,67.57,82,42,4.0,scattered clouds
602,Lumajang,ID,-8.1335,113.2248,82.24,73,100,5.19,moderate rain
603,La Grande,US,45.3246,-118.0877,57.97,70,0,2.44,clear sky
604,Tual,ID,-5.6667,132.75,80.87,79,98,12.08,overcast clouds
605,Dzilam Gonzalez,MX,21.2833,-88.9333,74.1,97,100,5.41,overcast clouds
606,Prabumulih,ID,-3.45,104.25,91.65,52,94,2.93,overcast clouds
607,Afsin,TR,38.2477,36.914,63.34,46,14,5.7,few clouds
608,Dakar,SN,14.6937,-17.4441,74.28,83,91,10.58,overcast clouds
609,Mata,PT,40.683,-7.4592,59.94,95,52,3.89,broken clouds
610,Shingu,JP,33.7333,135.9833,75.9,75,60,3.13,broken clouds
611,Benoy,TD,8.9833,16.3199,75.38,71,92,7.02,overcast clouds
612,Kangaba,ML,11.9333,-8.4167,77.59,65,49,3.85,scattered clouds
613,Siukh,RU,42.5999,46.5446,71.62,35,0,4.99,clear sky
614,Ust-Barguzin,RU,53.45,108.9833,49.44,78,91,4.7,overcast clouds
615,Urambo,TZ,-5.0667,32.05,67.1,56,91,7.83,overcast clouds
616,Tucupita,VE,9.0622,-62.051,72.97,99,96,1.81,overcast clouds
617,Dauriya,RU,49.9333,116.8667,51.22,83,100,29.77,light rain
618,Altamira,BR,-3.2033,-52.2064,72.23,97,49,1.88,scattered clouds
619,Oktyabrskoye,RU,43.0645,44.7417,68.14,88,75,13.42,broken clouds
620,Jasper,US,37.2001,-94.3502,79.99,81,0,7.92,clear sky
621,Boyolangu,ID,-8.1181,111.8935,82.63,75,99,8.88,light rain
622,Borinskoye,RU,52.4569,39.3713,66.69,66,3,13.49,clear sky
623,Tezu,IN,27.9167,96.1667,93.49,59,70,1.34,broken clouds
624,Tuy Hoa,VN,13.0833,109.3,94.03,52,43,12.93,scattered clouds
625,Leeds,GB,53.7964,-1.5477,58.35,57,75,3.0,broken clouds
626,Sibolga,ID,1.7427,98.7792,85.98,64,46,6.42,scattered clouds
627,Xiaoweizhai,CN,26.1903,107.5125,83.82,74,97,9.82,overcast clouds
628,Kilosa,TZ,-6.8333,36.9833,70.18,61,75,2.48,broken clouds
629,Tucumcari,US,35.1717,-103.725,77.94,25,55,9.51,broken clouds
630,Dukat,RU,62.55,155.55,33.46,100,100,7.38,snow
631,Safaga,EG,26.7292,33.9365,76.95,35,0,20.74,clear sky
632,Kaoma,ZM,-14.7833,24.8,54.75,44,14,6.62,few clouds
633,Omsukchan,RU,62.5333,155.8,34.57,100,100,9.57,moderate rain
634,Barra Patuca,HN,15.8,-84.2833,79.16,88,100,11.77,overcast clouds
635,Llanes,ES,43.4198,-4.7549,66.87,90,98,4.79,overcast clouds
636,Helong,CN,42.5397,128.9972,66.63,83,100,6.31,overcast clouds
637,Port Victoria,KE,0.0939,33.9756,69.12,79,100,7.31,light rain
638,Saiha,IN,22.4833,92.9667,73.76,93,100,2.17,overcast clouds
639,Barbate,ES,36.1924,-5.9219,68.11,85,47,17.05,light rain
640,Novoagansk,RU,61.9449,76.6625,69.73,33,12,3.87,few clouds
641,Maryville,US,35.7565,-83.9705,65.44,86,31,3.83,scattered clouds
642,Moose Factory,CA,51.2585,-80.6094,44.6,65,75,5.75,broken clouds
643,Laizhou,CN,37.1717,119.9214,67.46,97,100,4.05,overcast clouds
644,Satinka,RU,52.3792,41.6819,69.62,72,14,12.75,few clouds
645,Soto La Marina,MX,23.7667,-98.2167,73.78,94,6,2.53,clear sky
646,Semnan,IR,35.5729,53.3971,87.78,16,0,6.22,clear sky
647,Port Hedland,AU,-20.3167,118.5667,69.85,28,75,14.97,light rain
648,Bulit,PH,7.1153,124.7894,90.09,60,21,2.53,few clouds
649,Wakkanai,JP,45.4094,141.6739,58.98,94,75,6.91,fog
650,Mecca,SA,21.4267,39.8261,94.89,30,22,5.28,few clouds
651,Raga,SS,8.4596,25.678,72.45,84,100,6.15,overcast clouds
652,Kabelvag,NO,68.2114,14.4817,49.53,76,75,11.5,broken clouds
653,Mulege,MX,26.8833,-111.9833,84.88,41,0,5.93,clear sky
654,Asasa,ET,7.1,39.2,64.99,50,98,6.2,overcast clouds
655,Poum,NC,-20.2333,164.0167,74.79,81,60,8.25,broken clouds
656,Guerrero Negro,MX,27.9769,-114.0611,65.48,86,4,13.02,clear sky
657,Pishin,PK,30.5803,66.9961,86.72,16,0,8.25,clear sky
658,Guru Har Sahai,IN,30.7167,74.4167,99.48,24,2,3.15,clear sky
659,Fengrun,CN,39.8333,118.1167,81.75,21,73,8.43,broken clouds
660,Nalut,LY,30.3333,10.85,78.78,22,3,14.9,clear sky
661,Guhagar,IN,17.4842,73.1929,84.97,74,69,15.03,broken clouds
662,Ko Samui,TH,9.5357,99.9357,91.31,55,20,5.75,few clouds
663,Ambulu,ID,-8.345,113.6058,83.1,73,100,8.55,overcast clouds
664,Olafsvik,IS,64.8945,-23.7142,40.42,69,100,18.61,overcast clouds
665,Hohhot,CN,40.8106,111.6522,78.26,33,0,15.66,clear sky
666,Calama,CL,-22.4667,-68.9333,37.89,52,0,18.41,clear sky
667,Marshall,US,34.3834,-86.3333,68.49,75,1,3.44,clear sky
668,Awjilah,LY,29.1081,21.2869,81.12,30,0,9.93,clear sky
669,Buin,CL,-33.7333,-70.75,57.06,76,100,1.63,overcast clouds
670,Kazachinskoye,RU,57.6953,93.2761,72.52,51,75,6.93,broken clouds
671,Liwale,TZ,-9.7667,37.9333,71.65,56,9,3.33,clear sky
672,Dongkan,CN,33.9997,119.8308,79.63,69,100,1.39,overcast clouds
673,Parker,US,32.7668,-97.8003,82.35,72,0,6.44,clear sky
674,Toora-Khem,RU,52.4675,96.11,70.2,37,54,1.39,broken clouds
675,Novo Aripuana,BR,-5.1206,-60.3797,72.46,98,99,2.42,overcast clouds
676,Biak,ID,-0.9131,122.8766,81.28,73,30,4.74,scattered clouds
677,Mmathubudukwane,BW,-24.6,26.4333,38.26,39,2,2.17,clear sky
678,Redding,US,40.5865,-122.3917,73.58,26,40,5.59,scattered clouds
679,Japura,ID,-0.3167,102.35,97.03,42,36,1.66,scattered clouds
680,Korgen,NO,66.0771,13.8153,53.13,93,100,4.56,moderate rain
681,Finschhafen,PG,-6.6024,147.8681,81.03,69,98,9.08,overcast clouds
682,Mahajanga,MG,-15.7167,46.3167,73.42,56,20,4.61,few clouds
683,Mahon,ES,39.8885,4.2658,73.96,88,20,11.5,few clouds
684,Shubarkuduk,KZ,49.1447,56.4872,93.52,15,0,14.9,clear sky
685,Whitehorse,CA,60.7161,-135.0538,59.77,36,20,8.05,few clouds
686,Duekoue,CI,6.7472,-7.3496,69.22,100,76,2.48,broken clouds
687,Launceston,AU,-41.45,147.1667,56.16,80,75,1.01,moderate rain
688,Aksarka,RU,66.5606,67.7975,53.56,79,99,16.06,light rain
689,Marzuq,YE,14.4,46.4667,89.22,23,99,1.92,overcast clouds
